[
  {
    "lat": "33.9972735",
    "lng": "-118.4782625",
    "id": 3759558,
    "name": "Crap Eyewear Venice Showroom",
    "email": "store@crapeyewear.com",
    "schedule": "Open daily 11-5pm",
    "address": "228 Main St. #14",
    "country": "USA",
    "state": "CA",
    "city": "Venice",
    "postal": "90291",
    "priority": 10,
    "apply_to_type": 1
  },
  {
    "lat": "45.37837589999999",
    "lng": "-1.1571377",
    "id": 9355264,
    "name": "Spyder Surf Shop",
    "web": "https:\/\/www.surf-longboard.com\/",
    "webdisplay": "www.surf-longboard.com\/",
    "address": "11 Av. de l'Océan",
    "country": "France",
    "city": "Vendays-Montalivet",
    "postal": "33930",
    "priority": 1,
    "apply_to_type": 1
  },
  {
    "lat": "37.936785",
    "lng": "-107.80819",
    "id": 12482824,
    "name": "Color",
    "web": "https:\/\/www.instagram.com\/colortelluride\/",
    "address": "359 East Colorado Avenue",
    "country": "USA",
    "state": "CO",
    "city": "Telluride",
    "postal": "81435",
    "priority": 1,
    "apply_to_type": 1
  },
  {
    "lat": "52.1169895",
    "lng": "-106.6555999",
    "id": 12482825,
    "name": "Alt Haus",
    "web": "https:\/\/www.instagram.com\/althausyxe\/",
    "address": "617A Main Street East",
    "country": "Canada",
    "state": "SK",
    "city": "Saskatoon",
    "postal": "S7H 0J8",
    "priority": 1,
    "apply_to_type": 1
  },
  {
    "lat": "37.5270473",
    "lng": "127.0484169",
    "id": 9006858,
    "name": "Maniac Mansion",
    "web": "https:\/\/www.instagram.com\/maniacmansion_official\/?hl=en",
    "webdisplay": "www.instagram.com\/maniacmansion_official\/?hl=en",
    "address": "청담동 113-13 2F",
    "country": "Korea, South",
    "priority": 1,
    "apply_to_type": 1
  },
  {
    "lat": "32.0646351",
    "lng": "34.77106130000001",
    "id": 12482826,
    "name": "Kesh Unlimited",
    "web": "https:\/\/www.instagram.com\/kesh.unlmtd\/",
    "address": "40 Nahalat Binyamin st.",
    "country": "Israel",
    "state": "Tel Aviv",
    "city": "Tel Aviv",
    "priority": 1,
    "apply_to_type": 1
  },
  {
    "lat": "21.2986821",
    "lng": "-157.8612561",
    "id": 9884685,
    "name": "Milo ",
    "web": "https:\/\/www.instagram.com\/milohawaii\/",
    "webdisplay": "www.instagram.com\/milohawaii\/",
    "address": "675 Auahi Street ",
    "country": "USA",
    "state": "HI",
    "city": "Honolulu",
    "postal": "96813",
    "priority": 1,
    "apply_to_type": 1
  },
  {
    "lat": "42.3512102",
    "lng": "-83.0636732",
    "id": 9884686,
    "name": "Nora",
    "web": "https:\/\/www.instagram.com\/noradetroit\/",
    "webdisplay": "www.instagram.com\/noradetroit\/",
    "address": "4240 Cass Ave UNIT 109",
    "country": "USA",
    "state": "MI",
    "city": "Detroit",
    "postal": "48201",
    "priority": 1,
    "apply_to_type": 1
  },
  {
    "lat": "44.9718831",
    "lng": "-93.52414139999999",
    "id": 9884687,
    "name": "Good Office Day",
    "web": "https:\/\/goodofficeday.com\/",
    "webdisplay": "goodofficeday.com\/",
    "address": "196 Lakeview Lane",
    "country": "USA",
    "state": "MN",
    "city": "Wayzata",
    "postal": "55391",
    "priority": 1,
    "apply_to_type": 1
  },
  {
    "lat": "47.5448009",
    "lng": "-90.8946771",
    "id": 13797393,
    "name": "Electric Trails",
    "web": "https:\/\/www.instagram.com\/electrictrails\/",
    "address": "7902 MN-61",
    "country": "USA",
    "state": "MN",
    "city": "Schroeder",
    "postal": "55613",
    "priority": 1,
    "apply_to_type": 1
  },
  {
    "lat": "36.973129",
    "lng": "-122.0265183",
    "id": 11869970,
    "name": "Stripe",
    "web": "https:\/\/www.instagram.com\/stripesantacruz\/",
    "address": "107  Walnut Ave",
    "country": "USA",
    "state": "CA",
    "city": "Santa Cruz",
    "postal": "95060",
    "priority": 1,
    "apply_to_type": 1
  },
  {
    "lat": "37.5303704",
    "lng": "126.969584",
    "id": 13797394,
    "name": "Childhood Home",
    "web": "https:\/\/www.instagram.com\/thechildhoodhome\/",
    "address": "5 Hangang-daero 40-gil, Yongsan-gu,",
    "country": "Korea, South",
    "state": "Soul-t'ukpyolsi",
    "city": "Yongsan-gu",
    "postal": "04382",
    "priority": 1,
    "apply_to_type": 1
  },
  {
    "lat": "48.0797567",
    "lng": "-4.3319662",
    "id": 11869971,
    "name": "Handy Pal's",
    "address": "5 Rue de Pont Dinou",
    "country": "France",
    "city": "Douarnenez",
    "postal": "29100",
    "priority": 1,
    "apply_to_type": 1
  },
  {
    "lat": "42.6534505",
    "lng": "-73.76525989999999",
    "id": 13797396,
    "name": "Rom Shop",
    "web": "https:\/\/www.instagram.com\/romshop.co\/",
    "address": "331 Hudson Ave",
    "country": "USA",
    "state": "NY",
    "city": "Albany",
    "postal": "12210",
    "priority": 1,
    "apply_to_type": 1
  },
  {
    "lat": "20.1794772",
    "lng": "-87.44575429999999",
    "id": 9006871,
    "name": "Happy Eyes Co. Tulum",
    "web": "https:\/\/www.instagram.com\/happyeyesmx\/",
    "webdisplay": "www.instagram.com\/happyeyesmx\/",
    "address": "Carretera Tulum, Punta Allen",
    "country": "Mexico",
    "city": "Tulum",
    "postal": "77760",
    "priority": 1,
    "apply_to_type": 1
  },
  {
    "lat": "19.4249141",
    "lng": "-99.15990749999999",
    "id": 9006872,
    "name": "Marsella 68",
    "web": "https:\/\/www.marsella68.store\/",
    "webdisplay": "www.marsella68.store\/",
    "address": "Calle Marsella 68, Juárez, Cuauhtémoc ",
    "country": "Mexico",
    "city": "Ciudad de México",
    "postal": "06600",
    "priority": 1,
    "apply_to_type": 1
  },
  {
    "lat": "49.88747739999999",
    "lng": "-97.16551419999999",
    "id": 8266009,
    "name": "Chip’s Vintage",
    "web": "https:\/\/www.chipsvintage.com\/",
    "webdisplay": "www.chipsvintage.com\/",
    "address": "249 Beverley Street",
    "country": "Canada",
    "state": "MB",
    "city": "Winnipeg ",
    "postal": "R3G 1T6",
    "priority": 1,
    "apply_to_type": 1
  },
  {
    "lat": "48.4276117",
    "lng": "-123.3690984",
    "id": 8266010,
    "name": "Still Life ",
    "web": "https:\/\/stilllifeboutique.com\/",
    "webdisplay": "stilllifeboutique.com\/",
    "address": "120-560 Johnson St.",
    "country": "Canada",
    "state": "BC",
    "city": "Victoria  ",
    "postal": "V8W 3C6",
    "priority": 1,
    "apply_to_type": 1
  },
  {
    "lat": "7.432407",
    "lng": "-80.1955268",
    "id": 9006874,
    "name": "Homies Surf",
    "web": "https:\/\/www.instagram.com\/homiessurf\/",
    "webdisplay": "www.instagram.com\/homiessurf\/",
    "address": "Playa Venao",
    "country": "Panama",
    "state": "Panama",
    "city": "Playa Venao",
    "priority": 1,
    "apply_to_type": 1
  },
  {
    "lat": "49.1532403",
    "lng": "-125.906817",
    "id": 13797402,
    "name": "Caravan Beach Shop",
    "web": "https:\/\/caravanbeachshop.com\/",
    "address": "346 Campbell Street",
    "country": "Canada",
    "state": "BC",
    "city": "Tofino",
    "postal": "V0R 2Z0",
    "priority": 1,
    "apply_to_type": 1
  },
  {
    "lat": "35.279712",
    "lng": "-120.6638029",
    "id": 9006875,
    "name": "Len Collective",
    "web": "https:\/\/www.lencollective.com\/",
    "webdisplay": "www.lencollective.com\/",
    "address": "760 Higuera St",
    "country": "USA",
    "state": "CA",
    "city": "San Luis Obispo",
    "postal": "93401",
    "priority": 1,
    "apply_to_type": 1
  },
  {
    "lat": "-34.9826476",
    "lng": "138.7262407",
    "id": 9006876,
    "name": "Ensemble Studios",
    "web": "https:\/\/www.ensemblestudios.com.au\/",
    "webdisplay": "www.ensemblestudios.com.au\/",
    "address": "176 Piccadilly Rd",
    "country": "Australia",
    "state": "South Australia",
    "city": "Piccadilly",
    "postal": "SA 5151",
    "priority": 1,
    "apply_to_type": 1
  },
  {
    "lat": "40.0198815",
    "lng": "-105.2716813",
    "id": 9006877,
    "name": "Disco Apocalypse",
    "web": "https:\/\/www.instagram.com\/disco.apocalypse",
    "webdisplay": "www.instagram.com\/disco.apocalypse",
    "address": "1813 Pearl Street",
    "country": "USA",
    "state": "CO",
    "city": "Boulder",
    "postal": "80302",
    "priority": 1,
    "apply_to_type": 1
  },
  {
    "lat": "32.219042",
    "lng": "-110.985497",
    "id": 13797405,
    "name": "El Be Goods",
    "web": "https:\/\/www.instagram.com\/elbegoodsboutique\/",
    "address": "160 South Avenida del Convento",
    "country": "USA",
    "state": "AZ",
    "city": "Tucson",
    "postal": "85745",
    "priority": 1,
    "apply_to_type": 1
  },
  {
    "lat": "38.0675728",
    "lng": "-122.8055834",
    "id": 9550110,
    "name": "Visions",
    "web": "https:\/\/www.shop-visions.com\/",
    "webdisplay": "www.shop-visions.com\/",
    "address": "65 3rd St #14",
    "country": "USA",
    "state": "CA",
    "city": "Point Reyes Station",
    "postal": "94956",
    "priority": 1,
    "apply_to_type": 1
  },
  {
    "lat": "35.139289",
    "lng": "-120.6413092",
    "id": 13797407,
    "name": "Esteem Surf Co.",
    "web": "https:\/\/www.instagram.com\/esteemsurfco\/",
    "address": "590 Cypress Street",
    "country": "USA",
    "state": "CA",
    "city": "Pismo Beach",
    "postal": "93449",
    "priority": 1,
    "apply_to_type": 1
  },
  {
    "lat": "37.4860107",
    "lng": "-122.2293231",
    "id": 12226847,
    "name": "Madison Ave.",
    "web": "https:\/\/www.instagram.com\/shopmadave\/",
    "address": "816 Middlefield Rd.",
    "country": "USA",
    "state": "CA",
    "city": "Redwood City",
    "postal": "94063",
    "priority": 1,
    "apply_to_type": 1
  },
  {
    "lat": "29.4465093",
    "lng": "-98.4751156",
    "id": 9006880,
    "name": "Chictique",
    "web": "https:\/\/www.instagram.com\/shopchictique\/",
    "webdisplay": "www.instagram.com\/shopchictique\/",
    "address": "2202 Broadway St",
    "country": "USA",
    "state": "TX",
    "city": "San Antonio ",
    "postal": "78215",
    "priority": 1,
    "apply_to_type": 1
  },
  {
    "lat": "40.7162966",
    "lng": "-73.9657505",
    "id": 10910240,
    "name": "Pilgrim Surf + Supply",
    "web": "https:\/\/www.instagram.com\/pilgrimsurfsupply\/?hl=en",
    "address": "33 Grand Street",
    "country": "USA",
    "state": "NY",
    "city": "Brooklyn",
    "postal": "11249",
    "priority": 1,
    "apply_to_type": 1
  },
  {
    "lat": "38.6480616",
    "lng": "-90.26115089999999",
    "id": 9006881,
    "name": "East West ",
    "web": "https:\/\/www.eastandwest.store\/",
    "webdisplay": "www.eastandwest.store\/",
    "address": "387 N Euclid Ave",
    "country": "USA",
    "state": "MO",
    "city": "St. Louis,",
    "postal": "63108",
    "priority": 1,
    "apply_to_type": 1
  },
  {
    "lat": "33.7719487",
    "lng": "-118.1593986",
    "id": 12226849,
    "name": "Skies For Miles",
    "web": "https:\/\/www.instagram.com\/skiesformiles\/",
    "address": "2741 E 4th St C",
    "country": "USA",
    "state": "CA",
    "city": "Long Beach",
    "postal": "90814",
    "priority": 1,
    "apply_to_type": 1
  },
  {
    "lat": "43.47504720000001",
    "lng": "-1.562347",
    "id": 9550113,
    "name": "Septembre00",
    "web": "https:\/\/www.instagram.com\/septembre00\/?hl=en",
    "webdisplay": "www.instagram.com\/septembre00\/?hl=en",
    "address": "49 avenue du maréchal ",
    "country": "France",
    "city": "Joffre Biarritz",
    "postal": "64200",
    "priority": 1,
    "apply_to_type": 1
  },
  {
    "lat": "39.7633581",
    "lng": "-104.9831529",
    "id": 9006882,
    "name": "Meek",
    "web": "https:\/\/shopmeek.co\/",
    "webdisplay": "shopmeek.co\/",
    "address": "2901 Blake St ",
    "address2": "#160",
    "country": "USA",
    "state": "CO",
    "city": "Denver",
    "postal": "80205",
    "priority": 1,
    "apply_to_type": 1
  },
  {
    "lat": "40.7057864",
    "lng": "-73.9331373",
    "id": 10910242,
    "name": "Friends NYC",
    "web": "https:\/\/www.instagram.com\/friendsnyc\/?hl=en",
    "address": "56 Bogart St",
    "country": "USA",
    "state": "NY",
    "city": "Brooklyn",
    "postal": "11206",
    "priority": 1,
    "apply_to_type": 1
  },
  {
    "lat": "37.8275529",
    "lng": "-122.2507269",
    "id": 12226850,
    "name": "Good Neighbor",
    "web": "https:\/\/www.instagram.com\/iheartgoodneighbor\/?hl=en",
    "address": "4200 Piedmont Ave",
    "country": "USA",
    "state": "CA",
    "city": "Oakland",
    "postal": "94611",
    "priority": 1,
    "apply_to_type": 1
  },
  {
    "lat": "34.1095647",
    "lng": "-118.1934016",
    "id": 9550114,
    "name": "Prelude & Dawn",
    "web": "https:\/\/preludeanddawn.com\/",
    "webdisplay": "preludeanddawn.com\/",
    "address": "5627 N Figueroa Street ",
    "country": "USA",
    "state": "CA",
    "city": "Los Angeles",
    "postal": "90042",
    "priority": 1,
    "apply_to_type": 1
  },
  {
    "lat": "40.9749893",
    "lng": "-72.1420297",
    "id": 10910243,
    "name": "WARM",
    "web": "https:\/\/www.instagram.com\/thewarmstore\/",
    "address": "171 Main St",
    "country": "USA",
    "state": "NY",
    "city": "Amagansett",
    "postal": "11930",
    "priority": 1,
    "apply_to_type": 1
  },
  {
    "lat": "39.1983327",
    "lng": "-84.5462371",
    "id": 10910244,
    "name": "Launch Party",
    "web": "https:\/\/shoplaunchparty.com\/",
    "address": "5846 Hamilton Ave",
    "country": "USA",
    "state": "OH",
    "city": "Cincinnati",
    "postal": "45224",
    "priority": 1,
    "apply_to_type": 1
  },
  {
    "lat": "46.8667011",
    "lng": "-113.99786",
    "id": 9550116,
    "name": "Betty's Divine",
    "web": "https:\/\/www.bettysdivine.com\/",
    "webdisplay": "www.bettysdivine.com\/",
    "address": "509 South Higgins Avenue",
    "country": "USA",
    "city": "Missoula",
    "postal": "59801",
    "priority": 1,
    "apply_to_type": 1
  },
  {
    "lat": "41.8298417",
    "lng": "-86.6908306",
    "id": 9550117,
    "name": "Eastern Standard Time",
    "web": "https:\/\/www.instagram.com\/easternstandardtime_est\/?hl=en",
    "webdisplay": "www.instagram.com\/easternstandardtime_est\/?hl=en",
    "address": "15998 Red Arrow Highway ",
    "country": "USA",
    "state": "MI",
    "city": "Union Pier",
    "postal": "49129",
    "priority": 1,
    "apply_to_type": 1
  },
  {
    "lat": "40.5969162",
    "lng": "-73.8009423",
    "id": 11066920,
    "name": "The Almeda Club",
    "web": "https:\/\/www.instagram.com\/the_almeda_club\/?hl=en",
    "address": "69 - 62 Almeda Avenue.",
    "country": "USA",
    "state": "NY",
    "city": "Far Rockaway",
    "postal": "11692",
    "priority": 1,
    "apply_to_type": 1
  },
  {
    "lat": "32.8145699",
    "lng": "-117.2703098",
    "id": 11066921,
    "name": "Hermosa Surf Shop",
    "web": "https:\/\/www.instagram.com\/hermosasurfshop\/?hl=en",
    "address": "5636 La Jolla Blvd.",
    "country": "USA",
    "state": "CA",
    "city": "La Jolla",
    "postal": "92037",
    "priority": 1,
    "apply_to_type": 1
  },
  {
    "lat": "-33.8805442",
    "lng": "151.2139552",
    "id": 12820273,
    "name": "Environa Studio",
    "web": "https:\/\/www.instagram.com\/environastudio\/?hl=en",
    "address": "224 Riley Street",
    "address2": "Surry Hills NSW 2010 Australia",
    "country": "Australia",
    "state": "New South Wales",
    "city": "Surry Hills",
    "postal": "2010",
    "priority": 1,
    "apply_to_type": 1
  },
  {
    "lat": "50.408825",
    "lng": "2.7589047",
    "id": 12820274,
    "name": "La Binocle",
    "address": "11bis Rue Georges Clemenceau",
    "country": "France",
    "city": "Angres",
    "postal": "62143",
    "priority": 1,
    "apply_to_type": 1
  },
  {
    "lat": "45.5511113",
    "lng": "-122.6664711",
    "id": 11068215,
    "name": "FISK",
    "web": "https:\/\/www.instagram.com\/fiskprojects\/",
    "address": "3922 N Williams Ave",
    "country": "USA",
    "state": "OR",
    "city": "Portland",
    "postal": "97227",
    "priority": 1,
    "apply_to_type": 1
  },
  {
    "lat": "20.0230626",
    "lng": "-155.6766048",
    "id": 11068216,
    "name": "Surfcamp",
    "web": "https:\/\/www.instagram.com\/surfcamp_hawaii\/?hl=en",
    "address": "65-1227 Opelo Rd A-1",
    "country": "USA",
    "state": "HI",
    "city": "Waimea",
    "postal": "96743",
    "priority": 1,
    "apply_to_type": 1
  },
  {
    "lat": "40.6873785",
    "lng": "-73.9749576",
    "id": 11068217,
    "name": "Clic Brooklyn",
    "web": "https:\/\/www.clic.com\/",
    "address": "85 Lafayette Avenue",
    "country": "USA",
    "state": "NY",
    "city": "Brooklyn",
    "postal": "11217",
    "priority": 1,
    "apply_to_type": 1
  },
  {
    "lat": "45.5227415",
    "lng": "-122.6411642",
    "id": 10069306,
    "name": "Banshee",
    "web": "https:\/\/shopbanshee.com\/",
    "address": "2410 E Burnside St",
    "country": "USA",
    "state": "OR",
    "city": "Portland",
    "postal": "97214",
    "priority": 1,
    "apply_to_type": 1
  },
  {
    "lat": "42.3580524",
    "lng": "-83.0167091",
    "id": 11068218,
    "name": "SMPLFD Printing Co",
    "web": "https:\/\/www.instagram.com\/smplfd\/?hl=en",
    "address": "2905 Beaufait Street",
    "country": "USA",
    "state": "MI",
    "city": "Detroit",
    "postal": "48207",
    "priority": 1,
    "apply_to_type": 1
  },
  {
    "lat": "49.69804",
    "lng": "-123.15922",
    "id": 10069307,
    "name": "Grateful Gift Shop",
    "web": "https:\/\/gratefulgiftshop.com\/",
    "address": "29-1204 Main Street",
    "country": "Canada",
    "state": "BC",
    "city": "Squamish",
    "postal": "V8B 0S3",
    "priority": 1,
    "apply_to_type": 1
  },
  {
    "lat": "36.1669489",
    "lng": "-115.1340026",
    "id": 11068219,
    "name": "All For Our Country",
    "web": "https:\/\/www.instagram.com\/ALLFOROURCOUNTRY\/",
    "address": "1028 Fremont Street, #170",
    "country": "USA",
    "state": "NV",
    "city": "Las Vegas",
    "postal": "89011",
    "priority": 1,
    "apply_to_type": 1
  },
  {
    "lat": "38.9326428",
    "lng": "-74.9227283",
    "id": 11068222,
    "name": "GIVENS",
    "web": "https:\/\/www.instagram.com\/givenscircle\/",
    "address": "418 Washington Street",
    "country": "USA",
    "state": "NJ",
    "city": "Cape May",
    "postal": "08204",
    "priority": 1,
    "apply_to_type": 1
  },
  {
    "lat": "33.9918118",
    "lng": "-118.4696965",
    "id": 11681088,
    "name": "LCD",
    "web": "https:\/\/www.shoplcd.co\/",
    "address": "1121 Abbot Kinney Blvd Ste 4",
    "country": "USA",
    "state": "CA",
    "city": "Los Angeles",
    "postal": "90291",
    "priority": 1,
    "apply_to_type": 1
  },
  {
    "lat": "34.0750802",
    "lng": "-118.2534773",
    "id": 13004608,
    "name": "Clare V",
    "web": "https:\/\/www.clarev.com\/pages\/locations",
    "address": "3339 West Sunset Boulevard",
    "country": "USA",
    "state": "CA",
    "city": "Los Angeles",
    "postal": "90026",
    "priority": 1,
    "apply_to_type": 1
  },
  {
    "lat": "9.6441125",
    "lng": "-85.1677093",
    "id": 11681090,
    "name": "House of Somos",
    "web": "https:\/\/houseofsomos.com\/",
    "address": "25 M AL SUR FRENTE A LORA AMARILLA. LOTE",
    "country": "Costa Rica",
    "state": "Puntarenas",
    "city": "Santa Teresa Beach, Cobano",
    "postal": "60101",
    "priority": 1,
    "apply_to_type": 1
  },
  {
    "lat": "33.8838287",
    "lng": "-118.4104679",
    "id": 11681092,
    "name": "The Hang",
    "web": "https:\/\/www.instagram.com\/thehangmb\/",
    "address": "1015 Manhattan Ave",
    "country": "USA",
    "state": "CA",
    "city": "Manhattan Beach",
    "postal": "90266",
    "priority": 1,
    "apply_to_type": 1
  },
  {
    "lat": "33.7271468",
    "lng": "-118.2894828",
    "id": 9006155,
    "name": "Good Faith Gallery",
    "web": "https:\/\/www.good-faith.co\/",
    "webdisplay": "www.good-faith.co\/",
    "address": " 566 19th St",
    "country": "USA",
    "state": "CA",
    "city": "CA",
    "postal": "92102",
    "priority": 1,
    "apply_to_type": 1
  },
  {
    "lat": "48.1174996",
    "lng": "-122.7611431",
    "id": 11942220,
    "name": "Second Child",
    "web": "https:\/\/www.instagram.com\/second___child\/",
    "address": "1004 Lawrence St",
    "country": "USA",
    "state": "WA",
    "city": "Port Townsend",
    "postal": "98368",
    "priority": 1,
    "apply_to_type": 1
  },
  {
    "lat": "33.5179541",
    "lng": "-112.0655104",
    "id": 9006156,
    "name": "Phoenix General ",
    "web": "https:\/\/phxgeneral.com\/",
    "webdisplay": "phxgeneral.com\/",
    "address": "5538 N. 7th Street",
    "address2": "#120 ",
    "country": "USA",
    "state": "AZ",
    "city": "Phoenix",
    "postal": "85014",
    "priority": 1,
    "apply_to_type": 1
  },
  {
    "lat": "33.1768508",
    "lng": "-117.3640576",
    "id": 9006157,
    "name": "RANSACK",
    "web": "https:\/\/www.shopransack.com\/",
    "webdisplay": "www.shopransack.com\/",
    "address": "1639 S. Coast Hwy",
    "address2": " Unit B",
    "country": "USA",
    "state": "CA",
    "city": "Oceanside",
    "postal": "92054",
    "priority": 1,
    "apply_to_type": 1
  },
  {
    "lat": "32.7580268",
    "lng": "-117.1423582",
    "id": 9006158,
    "name": "La Loupe Vintage",
    "web": "https:\/\/www.laloupevintage.com\/",
    "webdisplay": "www.laloupevintage.com\/",
    "address": "4439 Alabama St",
    "country": "USA",
    "state": "CA",
    "city": "San Diego",
    "postal": "92116",
    "priority": 1,
    "apply_to_type": 1
  },
  {
    "lat": "51.08947",
    "lng": "-115.358135",
    "id": 10976338,
    "name": "Stonewaters",
    "web": "https:\/\/www.instagram.com\/stonewatersdecor\/?hl=en",
    "address": "638 Main St",
    "country": "Canada",
    "state": "AB",
    "city": "Canmore",
    "postal": "T1W 2B5",
    "priority": 1,
    "apply_to_type": 1
  },
  {
    "lat": "40.725791",
    "lng": "-73.9446538",
    "id": 13067865,
    "name": "Drama Club",
    "web": "http:\/\/www.dramaclub.us",
    "address": "205 Nassau Ave",
    "country": "USA",
    "state": "NY",
    "city": "Brooklyn",
    "postal": "11222",
    "priority": 1,
    "apply_to_type": 1
  },
  {
    "lat": "38.8959153",
    "lng": "-121.07777",
    "id": 11174746,
    "name": "Ragged Glory Trading Co",
    "web": "https:\/\/www.instagram.com\/raggedglorytradingco\/",
    "address": "1558 Lincoln Way",
    "country": "USA",
    "state": "CA",
    "city": "Auburn",
    "postal": "95603",
    "priority": 1,
    "apply_to_type": 1
  },
  {
    "lat": "49.5025667",
    "lng": "-115.0624602",
    "id": 11174747,
    "name": "Edge of the World",
    "web": "https:\/\/www.instagram.com\/edgeoftheworld.ca\/",
    "address": "421B 2nd Avenue",
    "country": "Canada",
    "state": "BC",
    "city": "Fernie",
    "postal": "V0B 1M0",
    "priority": 1,
    "apply_to_type": 1
  },
  {
    "lat": "40.72075460000001",
    "lng": "-73.99794709999999",
    "id": 11174748,
    "name": "Clic",
    "description": "Clic\r<br>255 Centre Street\r<br>New York NY 10013",
    "address": "255 Centre Street",
    "country": "USA",
    "state": "NY",
    "city": "New York",
    "postal": "10013",
    "priority": 1,
    "apply_to_type": 1
  },
  {
    "lat": "43.6453937",
    "lng": "-79.4299561",
    "id": 13310307,
    "name": "Bather",
    "web": "https:\/\/www.instagram.com\/bather\/",
    "address": "450 Dufferin St",
    "country": "Canada",
    "state": "ON",
    "city": "Toronto",
    "postal": "M6K 2A5,",
    "priority": 1,
    "apply_to_type": 1
  },
  {
    "lat": "44.0539941",
    "lng": "-123.0887079",
    "id": 13310308,
    "name": "Gilt+Gossamer",
    "web": "https:\/\/www.instagram.com\/giltboutique\/?hl=en",
    "address": "296 E. 5th Avenue, Suite 223",
    "country": "USA",
    "state": "OR",
    "city": "Eugene",
    "postal": "97401",
    "priority": 1,
    "apply_to_type": 1
  },
  {
    "lat": "45.5198391",
    "lng": "-121.5967417",
    "id": 13310309,
    "name": "Precious Drab",
    "web": "https:\/\/www.instagram.com\/preciousdrabvintage\/",
    "address": "5709 madison rd",
    "country": "USA",
    "state": "OR",
    "city": "Parkdale",
    "postal": "97041",
    "priority": 1,
    "apply_to_type": 1
  },
  {
    "lat": "40.4900621",
    "lng": "-106.8405385",
    "id": 13310310,
    "name": "East West Novelty",
    "web": "https:\/\/www.instagram.com\/eastwestnoveltysb\/",
    "address": "1306 Lincoln Avenue",
    "country": "USA",
    "state": "CO",
    "city": "Steamboat Springs",
    "postal": "80487",
    "priority": 1,
    "apply_to_type": 1
  },
  {
    "lat": "33.7719672",
    "lng": "-118.1457201",
    "id": 13310311,
    "name": "Prism Boutique",
    "web": "https:\/\/www.instagram.com\/prismboutique\/?hl=en",
    "address": "406 Termino Avenue",
    "country": "USA",
    "state": "CA",
    "city": "Long Beach",
    "postal": "90814",
    "priority": 1,
    "apply_to_type": 1
  },
  {
    "lat": "37.5225933",
    "lng": "127.0268097",
    "id": 13310312,
    "name": "ETC",
    "web": "https:\/\/www.instagram.com\/etcseoul\/",
    "address": "B1, 16, Nonhyeon-ro 157-gil",
    "country": "Korea, South",
    "state": "Soul-t'ukpyolsi",
    "city": "Gangnam-gu",
    "postal": "06032",
    "priority": 1,
    "apply_to_type": 1
  },
  {
    "lat": "34.0844231",
    "lng": "-118.2740881",
    "id": 13776232,
    "name": "Candid Home",
    "web": "https:\/\/candidhome.co\/",
    "address": "3039 Sunset Boulevard",
    "country": "USA",
    "city": "Los Angeles",
    "postal": "90026",
    "priority": 1,
    "apply_to_type": 1
  },
  {
    "lat": "37.5594207",
    "lng": "126.9851991",
    "id": 10525046,
    "name": "8DIVISION",
    "web": "http:\/\/www.8division.com\/",
    "address": "31, Toegye-ro 18-gil",
    "country": "Korea, South",
    "state": "Soul-t'ukpyolsi",
    "city": "Myeong-dong, Jung-gu",
    "postal": "04631",
    "priority": 1,
    "apply_to_type": 1
  },
  {
    "lat": "34.4472201",
    "lng": "-119.2487728",
    "id": 10525050,
    "name": "Blue Ojai",
    "web": "https:\/\/www.instagram.com\/blue_ojai\/?hl=en",
    "address": "209 W Ojai Ave",
    "country": "USA",
    "state": "CA",
    "city": "Ojai",
    "postal": "93023",
    "priority": 1,
    "apply_to_type": 1
  },
  {
    "lat": "54.6793079",
    "lng": "25.2844337",
    "id": 10973820,
    "name": "Glasses On",
    "web": "https:\/\/www.instagram.com\/glasseson.lt\/",
    "address": "Vokiečių g. 9",
    "country": "Lithuania",
    "city": "Vilnius",
    "postal": "01130",
    "priority": 1,
    "apply_to_type": 1
  },
  {
    "lat": "34.1185894",
    "lng": "-118.2607691",
    "id": 10525052,
    "name": "Dreams",
    "web": "https:\/\/www.dreamslosangeles.com\/",
    "address": "3229 Glendale Boulevard",
    "country": "USA",
    "state": "CA",
    "city": "Los Angeles",
    "postal": "90039",
    "priority": 1,
    "apply_to_type": 1
  },
  {
    "lat": "34.1352883",
    "lng": "-116.3759756",
    "id": 10525053,
    "name": "Wine & Rock Shop",
    "web": "https:\/\/wineandrockshop.com\/",
    "address": "59006 Twentynine Palms Highway",
    "country": "USA",
    "state": "CA",
    "city": "Yucca Valley",
    "postal": "92284",
    "priority": 1,
    "apply_to_type": 1
  },
  {
    "lat": "38.9624236",
    "lng": "-9.416763",
    "id": 10067843,
    "name": "Magic Quiver Surf Shop",
    "web": "https:\/\/www.magicquiver.com\/",
    "webdisplay": "www.magicquiver.com\/",
    "address": "R. Dr. Eduardo Burnay 61",
    "country": "Portugal",
    "city": "Ericeira",
    "postal": " 2655-329 ",
    "priority": 1,
    "apply_to_type": 1
  },
  {
    "lat": "43.7537623",
    "lng": "11.1908677",
    "id": 10973828,
    "name": "Switch Shop",
    "web": "https:\/\/www.instagram.com\/switchshop.it\/",
    "address": "Via Dante 43\/45",
    "country": "Italy",
    "city": "Scandicci Firenze",
    "postal": "50018",
    "priority": 1,
    "apply_to_type": 1
  },
  {
    "lat": "44.5013498",
    "lng": "-80.219278",
    "id": 10067845,
    "name": "The Hive",
    "web": "https:\/\/thehivehoneyharbour.com\/",
    "webdisplay": "thehivehoneyharbour.com\/",
    "address": "60 Pine St",
    "country": "Canada",
    "state": "ON",
    "city": "Collingwood",
    "postal": "L9Y 2N7",
    "priority": 1,
    "apply_to_type": 1
  },
  {
    "lat": "37.7570615",
    "lng": "-122.420482",
    "id": 10067846,
    "name": "Gravel & Gold",
    "web": "https:\/\/gravelandgold.com\/",
    "webdisplay": "gravelandgold.com\/",
    "address": "3266 21st Street ",
    "country": "USA",
    "state": "CA",
    "city": "San Francisco",
    "postal": "94110",
    "priority": 1,
    "apply_to_type": 1
  },
  {
    "lat": "-33.9270211",
    "lng": "18.4503469",
    "id": 13797516,
    "name": "Float Apparel",
    "web": "https:\/\/www.instagram.com\/float_apparel\/",
    "address": "170 Albert Road",
    "country": "South Africa",
    "state": "Western Cape",
    "city": "Cape Town",
    "postal": "7915",
    "priority": 1,
    "apply_to_type": 1
  },
  {
    "lat": "46.48902640000001",
    "lng": "-80.9942342",
    "id": 10666145,
    "name": "Good Luck General Store",
    "web": "https:\/\/www.instagram.com\/goodluckgeneralstore\/",
    "address": "170 Elgin Street",
    "country": "Canada",
    "state": "ON",
    "city": "Greater Sudbury",
    "postal": "P3E 3N5",
    "priority": 1,
    "apply_to_type": 1
  },
  {
    "lat": "25.6558772",
    "lng": "-80.3269256",
    "id": 10666146,
    "name": "Meadow Collective",
    "web": "https:\/\/www.instagram.com\/meadowcollective\/",
    "address": "8245 SW 124th St",
    "country": "USA",
    "state": "FL",
    "city": "Pinecrest",
    "postal": "33156",
    "priority": 1,
    "apply_to_type": 1
  },
  {
    "lat": "30.4439534",
    "lng": "-91.1525277",
    "id": 11368114,
    "name": "Mid City Mercantile",
    "web": "https:\/\/www.instagram.com\/midcitymercantile\/",
    "address": "3622 Government Street",
    "country": "USA",
    "state": "LA",
    "city": "Baton Rouge",
    "postal": "70806",
    "priority": 1,
    "apply_to_type": 1
  },
  {
    "lat": "51.5241125",
    "lng": "-0.0716593",
    "id": 13799610,
    "name": "Bankrupt",
    "web": "https:\/\/bankruptstore.com",
    "address": "145 Brick Ln",
    "country": "United Kingdom",
    "city": "London",
    "postal": "E1 6SB",
    "priority": 1,
    "apply_to_type": 1
  },
  {
    "lat": "38.6272907",
    "lng": "-90.2533893",
    "id": 11436731,
    "name": "May's Place",
    "web": "https:\/\/www.instagram.com\/maysplace_stl\/",
    "address": "4180 Manchester Ave",
    "country": "USA",
    "state": "MO",
    "city": "St. Louis",
    "postal": "63110",
    "priority": 1,
    "apply_to_type": 1
  },
  {
    "lat": "34.2798279",
    "lng": "-119.2853246",
    "id": 13797563,
    "name": "Gentle People",
    "web": "https:\/\/www.instagram.com\/shopgentlepeople\/",
    "address": "86 S. Laurel St.",
    "country": "USA",
    "state": "CA",
    "city": "Ventura",
    "postal": "93001",
    "priority": 1,
    "apply_to_type": 1
  },
  {
    "lat": "34.039722",
    "lng": "-118.258525",
    "id": 11436732,
    "name": "The Hoxton, Downtown LA",
    "web": "https:\/\/www.instagram.com\/thehoxtonhotel\/",
    "address": "1060 South Broadway",
    "country": "USA",
    "state": "CA",
    "city": "Los Angeles",
    "postal": "90015",
    "priority": 1,
    "apply_to_type": 1
  },
  {
    "lat": "44.053984",
    "lng": "-123.088559",
    "id": 13797564,
    "name": "Gilt + Gossamer",
    "web": "https:\/\/shopgiltandgossamer.com\/",
    "address": "296 E 5th Ave Suites 15 & 223",
    "country": "USA",
    "state": "OR",
    "city": "Eugene",
    "postal": "97401",
    "priority": 1,
    "apply_to_type": 1
  },
  {
    "lat": "39.7522808",
    "lng": "-105.0041956",
    "id": 13797566,
    "name": "MCA Denver",
    "address": "1485 Delgany St",
    "country": "USA",
    "state": "CO",
    "city": "Denver",
    "postal": "80202",
    "priority": 1,
    "apply_to_type": 1
  },
  {
    "lat": "42.24812499999999",
    "lng": "-73.78508599999999",
    "id": 13797568,
    "name": "Nikki Chasin",
    "web": "https:\/\/nikkichasin.com\/",
    "address": "553 Warren St",
    "country": "USA",
    "state": "NY",
    "city": "Hudson",
    "postal": "12534",
    "priority": 1,
    "apply_to_type": 1
  },
  {
    "lat": "41.8619351",
    "lng": "-69.9847522",
    "id": 13797569,
    "name": "Outer Cape Surf",
    "web": "https:\/\/outercapesurf.co\/",
    "address": "4900 State Hwy",
    "country": "USA",
    "state": "MA",
    "city": "Eastham",
    "postal": "02642",
    "priority": 1,
    "apply_to_type": 1
  },
  {
    "lat": "38.15266580000001",
    "lng": "-107.7569322",
    "id": 13797571,
    "name": "Realm Supply",
    "web": "https:\/\/www.shoprealmsupply.com\/",
    "address": "525 Clinton St",
    "country": "USA",
    "state": "CO",
    "city": "Ridgway",
    "postal": "81432",
    "priority": 1,
    "apply_to_type": 1
  },
  {
    "lat": "39.7616794",
    "lng": "-104.9808023",
    "id": 13797572,
    "name": "Relic Vintage",
    "web": "https:\/\/www.instagram.com\/relic.vintage\/",
    "address": "2936 Larimer St",
    "country": "USA",
    "state": "CO",
    "city": "Denver",
    "postal": "80205",
    "priority": 1,
    "apply_to_type": 1
  },
  {
    "lat": "39.9796497",
    "lng": "-83.00376729999999",
    "id": 13797574,
    "name": "Sole Classics",
    "web": "https:\/\/www.soleclassics.com\/",
    "address": "846 N High St",
    "country": "USA",
    "state": "OH",
    "city": "Columbus",
    "postal": "43215",
    "priority": 1,
    "apply_to_type": 1
  },
  {
    "lat": "41.0000559",
    "lng": "-72.2950827",
    "id": 3759559,
    "name": "Satori ",
    "web": "https:\/\/www.instagram.com\/satorisagharbor\/",
    "webdisplay": "www.instagram.com\/satorisagharbor\/",
    "address": "95 Main Street ",
    "country": "USA",
    "state": "NY",
    "city": "Sag Harbor",
    "postal": "11963",
    "priority": 1,
    "apply_to_type": 1
  },
  {
    "lat": "41.0006799",
    "lng": "-72.2954786",
    "id": 13797575,
    "name": "Thriftknd",
    "web": "https:\/\/www.instagram.com\/thriftknd\/?hl=en",
    "address": "76 Main St",
    "country": "USA",
    "state": "NY",
    "city": "Sag Harbor",
    "postal": "11963",
    "priority": 1,
    "apply_to_type": 1
  },
  {
    "lat": "40.2168103",
    "lng": "-74.0086929",
    "id": 7552200,
    "name": "Interwoven",
    "web": "https:\/\/interwovenap.com\/",
    "webdisplay": "interwovenap.com\/",
    "address": "511 Cookman Ave",
    "country": "USA",
    "state": "NJ",
    "city": "Asbury Park",
    "postal": "07712",
    "priority": 1,
    "apply_to_type": 1
  },
  {
    "lat": "38.6480616",
    "lng": "-90.26115089999999",
    "id": 3759560,
    "name": "East - West",
    "web": "https:\/\/www.instagram.com\/eastandwest.store\/",
    "webdisplay": "www.instagram.com\/eastandwest.store\/",
    "address": "387 N. Euclid Ave",
    "country": "USA",
    "state": "MO",
    "city": "St. Louis",
    "postal": " 63108",
    "priority": 1,
    "apply_to_type": 1
  },
  {
    "lat": "42.0584935",
    "lng": "-73.9094131",
    "id": 13797576,
    "name": "Tivoli Mercantile",
    "web": "https:\/\/www.instagram.com\/tivolimercantile\/",
    "address": "60 Broadway Studio A",
    "country": "USA",
    "state": "NY",
    "city": "Tivoli",
    "postal": "12583",
    "priority": 1,
    "apply_to_type": 1
  },
  {
    "lat": "40.21663300000001",
    "lng": "-74.00997180000002",
    "id": 7552201,
    "name": "Glide Surf Co",
    "web": "http:\/\/www.glidesurfco.com\/",
    "webdisplay": "www.glidesurfco.com\/",
    "address": "520 Bangs Ave",
    "country": "USA",
    "state": "NJ",
    "city": "Asbury Park",
    "postal": "07712",
    "priority": 1,
    "apply_to_type": 1
  },
  {
    "lat": "-33.8988605",
    "lng": "151.175062",
    "id": 3759561,
    "name": "Route 66 Sydney",
    "web": "https:\/\/www.instagram.com\/route66store\/",
    "webdisplay": "www.instagram.com\/route66store\/",
    "address": "82-84 Enmore Road",
    "address2": "Shop 2",
    "country": "Australia",
    "state": "New South Wales",
    "city": "Newtown",
    "postal": "2042",
    "priority": 1,
    "apply_to_type": 1
  },
  {
    "lat": "30.2474676",
    "lng": "-97.7759473",
    "id": 7552202,
    "name": "Dylan Wylde",
    "web": "http:\/\/www.dylanwylde.com\/",
    "webdisplay": "www.dylanwylde.com\/",
    "address": "2324 S Lamar Blvd",
    "address2": "B",
    "country": "USA",
    "state": "TX",
    "city": "Austin",
    "postal": "78704",
    "priority": 1,
    "apply_to_type": 1
  },
  {
    "lat": "34.0867753",
    "lng": "-118.286487",
    "id": 3759563,
    "name": "Virgil Normal",
    "web": "https:\/\/www.instagram.com\/virgilnormal\/",
    "webdisplay": "www.instagram.com\/virgilnormal\/",
    "address": "4157 Normal Ave",
    "country": "USA",
    "state": "CA",
    "city": "Los Angeles",
    "postal": "90029",
    "priority": 1,
    "apply_to_type": 1
  },
  {
    "lat": "40.7175768",
    "lng": "-73.94504959999999",
    "id": 7552204,
    "name": "Vaux Vintage",
    "web": "https:\/\/vauxshop.com\/",
    "webdisplay": "vauxshop.com\/",
    "address": "421 Graham Ave",
    "country": "USA",
    "state": "NY",
    "city": "Brooklyn",
    "priority": 1,
    "apply_to_type": 1
  },
  {
    "lat": "33.9916487",
    "lng": "-118.4214398",
    "id": 3759564,
    "name": "SACHI.LA",
    "web": "https:\/\/www.instagram.com\/sachi.la\/",
    "webdisplay": "www.instagram.com\/sachi.la\/",
    "address": "4574 S Centinela Ave",
    "country": "USA",
    "state": "CA",
    "city": "Los Angeles",
    "postal": "90066",
    "priority": 1,
    "apply_to_type": 1
  },
  {
    "lat": "39.7616794",
    "lng": "-104.9808023",
    "id": 7552208,
    "name": "Thrift Cult",
    "web": "https:\/\/www.instagram.com\/shopthriftcult\/",
    "webdisplay": "www.instagram.com\/shopthriftcult\/",
    "address": "2936 Larimer St",
    "country": "USA",
    "state": "CO",
    "city": "Denver",
    "postal": "80205",
    "priority": 1,
    "apply_to_type": 1
  },
  {
    "lat": "34.109711",
    "lng": "-118.1922607",
    "id": 3759568,
    "name": "Worship Collective",
    "web": "https:\/\/www.instagram.com\/shopworshipla\/",
    "webdisplay": "www.instagram.com\/shopworshipla\/",
    "address": "5712 N Figueroa Street",
    "country": "USA",
    "state": "CA",
    "city": "Los Angeles",
    "postal": "90042",
    "priority": 1,
    "apply_to_type": 1
  },
  {
    "lat": "39.730296",
    "lng": "-121.8407377",
    "id": 3759569,
    "name": "Woodzee ",
    "web": "https:\/\/instagram.com\/woodzeeinc",
    "webdisplay": "instagram.com\/woodzeeinc",
    "address": "112 West 2nd Street",
    "country": "USA",
    "state": "CA",
    "city": "Chico",
    "postal": "95928",
    "priority": 1,
    "apply_to_type": 1
  },
  {
    "lat": "46.7638824",
    "lng": "-92.12855280000001",
    "id": 7552210,
    "name": "The Back Alley",
    "web": "https:\/\/www.instagram.com\/backalleyduluth\/?hl=en",
    "webdisplay": "www.instagram.com\/backalleyduluth\/?hl=en",
    "address": "2409 W Superior St",
    "country": "USA",
    "state": "MN",
    "city": "Duluth",
    "postal": "55806",
    "priority": 1,
    "apply_to_type": 1
  },
  {
    "lat": "33.6319794",
    "lng": "-117.9359349",
    "id": 3759570,
    "name": "Daydream Surf Shop",
    "web": "https:\/\/www.instagram.com\/daydreamsurfshop\/",
    "webdisplay": "www.instagram.com\/daydreamsurfshop\/",
    "address": "1588 Monrovia Ave",
    "country": "USA",
    "state": "CA",
    "city": "Newport Beach",
    "postal": "92663",
    "priority": 1,
    "apply_to_type": 1
  },
  {
    "lat": "33.0688914",
    "lng": "-117.3041201",
    "id": 7552211,
    "name": "Seaweed and Gravel",
    "web": "https:\/\/seaweedandgravel.com\/",
    "webdisplay": "seaweedandgravel.com\/",
    "address": "1144 N Coast Hwy 101",
    "country": "USA",
    "state": "CA",
    "city": "Encinitas",
    "postal": "92024",
    "priority": 1,
    "apply_to_type": 1
  },
  {
    "lat": "26.1326108",
    "lng": "-80.1420643",
    "id": 7552212,
    "name": "Montce Swim",
    "web": "https:\/\/www.montce.com\/",
    "webdisplay": "www.montce.com\/",
    "address": "731 NE 2nd Ave",
    "country": "USA",
    "state": "FL",
    "city": "Fort Lauderdale",
    "postal": "33304",
    "priority": 1,
    "apply_to_type": 1
  },
  {
    "lat": "39.7596247",
    "lng": "-104.984939",
    "id": 3759572,
    "name": "Recital",
    "web": "https:\/\/www.shoprecital.com\/",
    "webdisplay": "www.shoprecital.com\/",
    "address": "1362 27th st",
    "country": "USA",
    "state": "CO",
    "city": "Denver",
    "postal": "80205",
    "priority": 1,
    "apply_to_type": 1
  },
  {
    "lat": "29.699673",
    "lng": "-95.22018349999999",
    "id": 7552214,
    "name": "Faded Decade",
    "web": "https:\/\/fadeddecade.com\/",
    "webdisplay": "fadeddecade.com\/",
    "address": "820 Richey St",
    "country": "USA",
    "state": "TX",
    "city": "Houston",
    "postal": "77002",
    "priority": 1,
    "apply_to_type": 1
  },
  {
    "lat": "44.0590821",
    "lng": "-121.3143566",
    "id": 9757655,
    "name": "Ju-bee-lee",
    "web": "https:\/\/www.instagram.com\/jubeeleebend\/?hl=en",
    "webdisplay": "www.instagram.com\/jubeeleebend\/?hl=en",
    "address": "903 NW Wall St",
    "country": "USA",
    "state": "OR",
    "city": "Bend",
    "postal": "97703",
    "priority": 1,
    "apply_to_type": 1
  },
  {
    "lat": "9.9495761",
    "lng": "-85.6699115",
    "id": 9757656,
    "name": "Lobo Nosara",
    "web": "https:\/\/www.instagram.com\/lobo.nosara\/",
    "webdisplay": "www.instagram.com\/lobo.nosara\/",
    "address": "Frente a Mini Super Delicias del Mundo",
    "country": "Costa Rica",
    "city": "Playa Guiones, Nosara",
    "priority": 1,
    "apply_to_type": 1
  },
  {
    "lat": "37.537947",
    "lng": "127.0575999",
    "id": 9757657,
    "name": "Gas Station",
    "web": "https:\/\/www.instagram.com\/gasstation.xyz\/",
    "webdisplay": "www.instagram.com\/gasstation.xyz\/",
    "address": "424 Ttukseom-ro",
    "country": "Korea, South",
    "city": "Seongdong-gu, Seoul",
    "priority": 1,
    "apply_to_type": 1
  },
  {
    "lat": "12.5202409",
    "lng": "-70.03969649999999",
    "id": 3759578,
    "name": "Bula Surf Shop",
    "web": "https:\/\/www.instagram.com\/bulasurfshop\/?hl=en",
    "webdisplay": "www.instagram.com\/bulasurfshop\/?hl=en",
    "address": "Royal Plaza Suite 112",
    "country": "Aruba",
    "state": "Aruba",
    "city": "Oranjestad",
    "priority": 1,
    "apply_to_type": 1
  },
  {
    "lat": "-28.7730795",
    "lng": "114.61002",
    "id": 9757658,
    "name": "Corner Surf Shop",
    "web": "https:\/\/www.instagram.com\/cornersurfshopwestoz\/",
    "webdisplay": "www.instagram.com\/cornersurfshopwestoz\/",
    "address": "103 Marine Terrace",
    "country": "Australia",
    "state": "Western Australia",
    "city": "Geraldton ",
    "postal": "6530",
    "priority": 1,
    "apply_to_type": 1
  },
  {
    "lat": "34.1208103",
    "lng": "-118.2044242",
    "id": 7552219,
    "name": "The Quiet Life",
    "web": "http:\/\/thequietlife.com\/",
    "webdisplay": "thequietlife.com\/",
    "address": "5108 York Blvd",
    "country": "USA",
    "state": "CA",
    "city": " Los Angeles",
    "postal": "90042",
    "priority": 1,
    "apply_to_type": 1
  },
  {
    "lat": "37.549678",
    "lng": "127.0510695",
    "id": 9757659,
    "name": "HOUSE BY",
    "web": "https:\/\/www.instagram.com\/houseby______\/",
    "webdisplay": "www.instagram.com\/houseby______\/",
    "address": "13, Gwangnaru-ro 4ga-gil",
    "country": "Korea, South",
    "city": "Seongdong-gu",
    "postal": "04792",
    "priority": 1,
    "apply_to_type": 1
  },
  {
    "lat": "-31.92776",
    "lng": "115.85221",
    "id": 3759580,
    "name": "Beyond Skate",
    "web": "https:\/\/www.instagram.com\/beyondskate\/",
    "webdisplay": "www.instagram.com\/beyondskate\/",
    "address": "345 Charles Street",
    "country": "Australia",
    "state": "Western Australia",
    "city": "North Perth ",
    "postal": "6006",
    "priority": 1,
    "apply_to_type": 1
  },
  {
    "lat": "50.08912369999999",
    "lng": "-123.038608",
    "id": 9757660,
    "name": "Velvet Underground",
    "web": "https:\/\/www.instagram.com\/shop_velvetunderground\/",
    "webdisplay": "www.instagram.com\/shop_velvetunderground\/",
    "address": "5 1208 alpha lake road, 5 ",
    "country": "Canada",
    "state": "BC",
    "city": "Whistler",
    "postal": "v8e0h7",
    "priority": 1,
    "apply_to_type": 1
  },
  {
    "lat": "37.5622612",
    "lng": "126.7593433",
    "id": 7552222,
    "name": "Boyhood",
    "web": "https:\/\/www.boyhood.kr\/",
    "webdisplay": "www.boyhood.kr\/",
    "address": "405 \/ 202, 27, Dunggeujaesan-gil",
    "country": "Korea, South",
    "state": "Inch'on-gwangyoksi",
    "city": "Gyeyang-gu",
    "priority": 1,
    "apply_to_type": 1
  },
  {
    "lat": "49.2756388",
    "lng": "-123.1199625",
    "id": 3759582,
    "name": "Woo To See You",
    "web": "http:\/\/instagram.com\/wootoseeyou",
    "webdisplay": "instagram.com\/wootoseeyou",
    "address": "1062 Mainland Street",
    "country": "Canada",
    "state": "BC",
    "city": "Vancouver ",
    "postal": "V5V 3N6",
    "priority": 1,
    "apply_to_type": 1
  },
  {
    "lat": "40.7284956",
    "lng": "-73.9860597",
    "id": 7552224,
    "name": "Cloak & Dagger",
    "web": "https:\/\/www.cloakanddaggernyc.com\/",
    "webdisplay": "www.cloakanddaggernyc.com\/",
    "address": "334 E 9th St",
    "country": "USA",
    "state": "NY",
    "city": "New York",
    "postal": "10003",
    "priority": 1,
    "apply_to_type": 1
  },
  {
    "lat": "37.8819817",
    "lng": "-122.5246466",
    "id": 3759584,
    "name": "Proof Lab Station",
    "web": "https:\/\/www.instagram.com\/prooflab\/?hl=en",
    "webdisplay": "www.instagram.com\/prooflab\/?hl=en",
    "address": "254 Shoreline Hwy ",
    "country": "USA",
    "state": "CA",
    "city": "Mill Valley",
    "postal": "94941",
    "priority": 1,
    "apply_to_type": 1
  },
  {
    "lat": "22.2121643",
    "lng": "-159.4090633",
    "id": 12989921,
    "name": "Let Love Bloom",
    "web": "https:\/\/www.instagram.com\/letlovebloom\/?hl=en",
    "address": "2585 Ala Namahana Pkwy",
    "address2": "Unit 539",
    "country": "USA",
    "state": "HI",
    "city": "KILAUEA",
    "postal": "96754",
    "priority": 1,
    "apply_to_type": 1
  },
  {
    "lat": "44.6094409",
    "lng": "-79.4165359",
    "id": 7552226,
    "name": "Pocket Skate & Vintage",
    "web": "https:\/\/www.pocketskateandvintage.com\/",
    "webdisplay": "www.pocketskateandvintage.com\/",
    "address": "121 Mississaga Street East",
    "country": "Canada",
    "state": "ON",
    "city": "Orillia",
    "postal": "L3V 1V6",
    "priority": 1,
    "apply_to_type": 1
  },
  {
    "lat": "36.5543894",
    "lng": "-121.9218127",
    "id": 12989923,
    "name": "Somewhere In Carmel",
    "web": "https:\/\/www.instagram.com\/somewhereincarmel\/",
    "address": "San Carlos",
    "country": "USA",
    "state": "CA",
    "city": "Carmel-By-The-Sea",
    "postal": "93921",
    "priority": 1,
    "apply_to_type": 1
  },
  {
    "lat": "-31.9476038",
    "lng": "115.8604987",
    "id": 7552227,
    "name": "StreetX",
    "web": "https:\/\/www.streetx.com.au\/",
    "webdisplay": "www.streetx.com.au\/",
    "address": "272 William St",
    "country": "Australia",
    "state": "Western Australia",
    "city": "Perth",
    "postal": "6000",
    "priority": 1,
    "apply_to_type": 1
  },
  {
    "lat": "33.5356878",
    "lng": "-117.7783873",
    "id": 3759587,
    "name": "Thalia Surf Shop",
    "web": "https:\/\/www.instagram.com\/thaliasurf\/",
    "webdisplay": "www.instagram.com\/thaliasurf\/",
    "address": "915 S Coast Highway",
    "country": "USA",
    "state": "CA",
    "city": "Laguna Beach",
    "postal": "92651",
    "priority": 1,
    "apply_to_type": 1
  },
  {
    "lat": "44.9338677",
    "lng": "-93.1673912",
    "id": 12989925,
    "name": "After Hours Skateshop",
    "web": "https:\/\/www.instagram.com\/afterhours.skateshop\/?hl=en",
    "address": "251 Snelling Ave S",
    "country": "USA",
    "state": "MN",
    "city": "Saint Paul",
    "postal": "55105",
    "priority": 1,
    "apply_to_type": 1
  },
  {
    "lat": "39.9507331",
    "lng": "-75.17394569999999",
    "id": 7552229,
    "name": "Ritual Shoppe",
    "web": "https:\/\/ritualshoppe.com\/",
    "webdisplay": "ritualshoppe.com\/",
    "address": "2003 Walnut St",
    "country": "USA",
    "state": "PA",
    "city": "Philadelphia",
    "postal": "19103",
    "priority": 1,
    "apply_to_type": 1
  },
  {
    "lat": "45.5046442",
    "lng": "-122.6255742",
    "id": 7552230,
    "name": "Wild Cactus Boutique",
    "web": "https:\/\/wildcactuscompany.com\/",
    "webdisplay": "wildcactuscompany.com\/",
    "address": "3638 SE Division St",
    "country": "USA",
    "state": "OR",
    "city": "Portland",
    "postal": "97202",
    "priority": 1,
    "apply_to_type": 1
  },
  {
    "lat": "28.0463693",
    "lng": "-97.0346532",
    "id": 7552232,
    "name": "Lady Captain",
    "web": "https:\/\/www.instagram.com\/ladycaptainco\/",
    "webdisplay": "www.instagram.com\/ladycaptainco\/",
    "address": "1819 Broadway St",
    "country": "USA",
    "state": "TX",
    "city": "Rockport",
    "postal": "78382",
    "priority": 1,
    "apply_to_type": 1
  },
  {
    "lat": "32.7451561",
    "lng": "-117.2496926",
    "id": 7552233,
    "name": "Goodworth",
    "web": "https:\/\/shop.thegoodworth.com\/",
    "webdisplay": "shop.thegoodworth.com\/",
    "address": "1859 Cable St",
    "country": "USA",
    "state": "CA",
    "city": "San Diego",
    "postal": "92107",
    "priority": 1,
    "apply_to_type": 1
  },
  {
    "lat": "20.8693362",
    "lng": "-105.441311",
    "id": 7552234,
    "name": "Manyana",
    "web": "https:\/\/www.manyana.co\/",
    "webdisplay": "www.manyana.co\/",
    "address": "Calle Marlín 18 ",
    "country": "Mexico",
    "state": "Nayarit",
    "city": "Sayulita",
    "postal": "63734",
    "priority": 1,
    "apply_to_type": 1
  },
  {
    "lat": "37.5433046",
    "lng": "126.9879151",
    "id": 7552235,
    "name": "Fisher Sunwear",
    "web": "https:\/\/www.instagram.com\/fisher_sunwear\/",
    "webdisplay": "www.instagram.com\/fisher_sunwear\/",
    "address": "4, Sinheung-ro 12-gil 2F  ",
    "address2": "202 04339 YONGSAN-GU ",
    "country": "Korea, South",
    "state": "Soul-t'ukpyolsi",
    "city": "YONGSAN-GU",
    "postal": "202 04339",
    "priority": 1,
    "apply_to_type": 1
  },
  {
    "lat": "33.6290891",
    "lng": "-117.9531866",
    "id": 3759595,
    "name": "Frog House",
    "web": "https:\/\/www.instagram.com\/froghouse\/?hl=en",
    "webdisplay": "www.instagram.com\/froghouse\/?hl=en",
    "address": "6908 W. Coast Highway",
    "country": "USA",
    "state": "CA",
    "city": "Newport Beach",
    "postal": "92663",
    "priority": 1,
    "apply_to_type": 1
  },
  {
    "lat": "-37.8391989",
    "lng": "144.9915273",
    "id": 7552236,
    "name": "Shade Files",
    "web": "https:\/\/www.shadefiles.com.au\/",
    "webdisplay": "www.shadefiles.com.au\/",
    "address": "145 Osborne St ",
    "country": "Australia",
    "state": "Victoria",
    "city": "South Yarra",
    "postal": "3141",
    "priority": 1,
    "apply_to_type": 1
  },
  {
    "lat": "34.0374368",
    "lng": "-118.6376458",
    "id": 11180528,
    "name": "Brothers Marshall",
    "web": "https:\/\/www.instagram.com\/brothers_marshall\/",
    "address": "21237 PCH",
    "country": "USA",
    "state": "CA",
    "city": "MALIBU",
    "postal": "90265",
    "priority": 1,
    "apply_to_type": 1
  },
  {
    "lat": "33.6175387",
    "lng": "-117.9281268",
    "id": 8720122,
    "name": "SeaVees Newport",
    "web": "https:\/\/www.seavees.com\/",
    "webdisplay": "www.seavees.com\/",
    "address": "3377 Via Lido ",
    "country": "USA",
    "state": "CA",
    "city": "Newport Beach",
    "postal": "92663",
    "priority": 1,
    "apply_to_type": 1
  },
  {
    "lat": "47.6659787",
    "lng": "-122.382497",
    "id": 9010938,
    "name": "Prism",
    "web": "https:\/\/prismseattle.com\/",
    "webdisplay": "prismseattle.com\/",
    "address": "5208 Ballard Avenue NW",
    "country": "USA",
    "state": "WA",
    "city": "Seattle",
    "postal": "98107",
    "priority": 1,
    "apply_to_type": 1
  },
  {
    "lat": "34.4136123",
    "lng": "-119.6895218",
    "id": 8720123,
    "name": "Seavees Santa Barbara",
    "web": "https:\/\/www.seavees.com\/",
    "webdisplay": "www.seavees.com\/",
    "address": "24 East Mason Street",
    "country": "USA",
    "state": "CA",
    "city": "Santa Barbara ",
    "postal": "93101",
    "priority": 1,
    "apply_to_type": 1
  },
  {
    "lat": "40.7068353",
    "lng": "-73.92173",
    "id": 9010939,
    "name": "Little Shop of Soil",
    "web": "https:\/\/www.littleshopofsoil.com\/",
    "webdisplay": "www.littleshopofsoil.com\/",
    "address": "279 Starr Street",
    "country": "USA",
    "state": "NY",
    "city": "Brooklyn",
    "postal": "11237",
    "priority": 1,
    "apply_to_type": 1
  },
  {
    "lat": "33.6505494",
    "lng": "-117.7445907",
    "id": 9010940,
    "name": "RSQ Skate",
    "web": "https:\/\/rsqskate.com\/",
    "webdisplay": "rsqskate.com\/",
    "address": "605 Spectrum Center Dr",
    "country": "USA",
    "state": "CA",
    "city": "Irvine",
    "postal": "92618",
    "priority": 1,
    "apply_to_type": 1
  },
  {
    "lat": "43.0818529",
    "lng": "-73.78501650000001",
    "id": 9355260,
    "name": "Supernatural",
    "web": "https:\/\/www.shopatsupernatural.com\/",
    "webdisplay": "www.shopatsupernatural.com\/",
    "address": "420 Broadway ",
    "address2": "Suite 3 ",
    "country": "USA",
    "state": "NY",
    "city": "Saratoga Springs",
    "postal": "12866",
    "priority": 1,
    "apply_to_type": 1
  },
  {
    "lat": "41.4365155",
    "lng": "-74.0325368",
    "id": 9355261,
    "name": "Premium Roots ",
    "web": "https:\/\/premiumrootsnewyork.com\/",
    "webdisplay": "premiumrootsnewyork.com\/",
    "address": "246 Main Street",
    "address2": "Suite 14",
    "country": "USA",
    "state": "NY",
    "city": "Cornwall",
    "postal": "12518",
    "priority": 1,
    "apply_to_type": 1
  },
  {
    "lat": "44.9848424",
    "lng": "-93.2711506",
    "id": 9355262,
    "name": "Jaxon Grey",
    "web": "https:\/\/jaxongrey.com\/",
    "webdisplay": "jaxongrey.com\/",
    "address": "219 N 2nd St ",
    "address2": "Suite #110",
    "country": "USA",
    "state": "MN",
    "city": "Minneapolis",
    "postal": "55401",
    "priority": 1,
    "apply_to_type": 1
  }
]
